Address,Url,PriceLower,PriceUpper,PropertyType,NumBathrooms,NumBedrooms,NumCarSpaces,CityCode,Lat,Lng,H3Index
"81/223 North Terrace, Adelaide",https://www.realestate.com.au/property-apartment-sa-adelaide-147424576,585000,585000,Apartment,1,2,1,Adelaide,-34.83709236841708,138.55386690788455,87b9168e4ffffff
"2002/29 Angas Street, Adelaide",https://www.realestate.com.au/property-apartment-sa-adelaide-147423156,499000,539000,Apartment,1,1,1,Adelaide,-34.92960527813925,138.6102581513616,87b91682effffff
"3206/17 Austin Street, Adelaide",https://www.realestate.com.au/property-apartment-sa-adelaide-146125496,1100000,1100000,Apartment,2,3,1,Adelaide,-34.921997250000004,138.6048101123671,87b91682effffff
"711/160 Rundle Mall, Adelaide",https://www.realestate.com.au/property-apartment-sa-adelaide-147415260,135000,145000,Apartment,1,1,0,Adelaide,-34.922835101014854,138.6025992797875,87b91682effffff
"7/376 South Terrace, Adelaide",https://www.realestate.com.au/property-townhouse-sa-adelaide-147398416,999000,1089000,Townhouse,1,2,2,Adelaide,-34.97223563333057,138.54772088487408,87b91695effffff
"10/326 Gilles Street, Adelaide",https://www.realestate.com.au/property-apartment-sa-adelaide-140238631,489000,537900,Apartment,1,2,1,Adelaide,-34.93398717219582,138.6064178510701,87b91682effffff
"503/23 King William Street, Adelaide",https://www.realestate.com.au/property-apartment-sa-adelaide-146776480,309100,340000,Apartment,1,3,0,Adelaide,-34.92245830209435,138.59939842220888,87b91682effffff
"7 Southcott Walk, Adelaide",https://www.realestate.com.au/property-townhouse-sa-adelaide-147401164,1290000,1390000,Townhouse,2,2,2,Adelaide,-34.93329187914973,138.61038318939907,87b91682effffff
"3106/17 Austin Street, Adelaide",https://www.realestate.com.au/property-apartment-sa-adelaide-146766856,1250000,1250000,Apartment,2,3,1,Adelaide,-34.88121536824469,138.57041321127667,87b91680effffff
"211/175-185 Waymouth Street, Adelaide",https://www.realestate.com.au/property-apartment-sa-adelaide-147262012,389000,409000,Apartment,1,1,0,Adelaide,-34.92638075,138.58763085,87b91682affffff
"105/62 Hurtle Square, Adelaide",https://www.realestate.com.au/property-apartment-sa-adelaide-147001240,525000,525000,Apartment,1,1,0,Adelaide,-34.93182854684359,138.6070252397105,87b91682effffff
"306/304 Waymouth Street, Adelaide",https://www.realestate.com.au/property-apartment-sa-adelaide-146985788,155000,165000,Apartment,1,1,0,Adelaide,-34.9261228816573,138.59303424945108,87b91682effffff
"1802/29 Angas Street, Adelaide",https://www.realestate.com.au/property-apartment-sa-adelaide-147250396,500000,530000,Apartment,1,1,1,Adelaide,-34.85868465,138.5160373,87b916856ffffff
"206/14 Gilbert Street, Adelaide",https://www.realestate.com.au/property-apartment-sa-adelaide-147237852,460000,475000,Apartment,1,1,0,Adelaide,-34.93429185481178,138.60037249793103,87b91682effffff
"6/20 Norman Street, Adelaide",https://www.realestate.com.au/property-apartment-sa-adelaide-147383672,545000,565000,Apartment,1,2,0,Adelaide,-35.00837924297763,138.58140765913782,87b916955ffffff
"114 East Terrace, Adelaide",https://www.realestate.com.au/property-house-sa-adelaide-143886020,4250000,4500000,House,2,4,4,Adelaide,-34.912106436398076,138.49666915785144,87b916870ffffff
"1213/180 Morphett Street, Adelaide",https://www.realestate.com.au/property-apartment-sa-adelaide-147379784,485000,515000,Apartment,1,1,1,Adelaide,-34.861439354285785,138.65259454723204,87b916815ffffff
"207/211 Grenfell Street, Adelaide",https://www.realestate.com.au/property-house-sa-adelaide-147084144,495000,515000,House,1,1,1,Adelaide,-34.92394165964885,138.6078117976964,87b91682effffff
"71 South Terrace, Adelaide",https://www.realestate.com.au/property-house-sa-adelaide-147228292,1250000,1350000,House,2,3,2,Adelaide,-34.97223563333057,138.54772088487408,87b91695effffff
"910/421 King William Street, Adelaide",https://www.realestate.com.au/property-apartment-sa-adelaide-147146372,600000,650000,Apartment,1,2,1,Adelaide,-34.84884734842526,138.5191623146657,87b916856ffffff
"417/304 Waymouth Street, Adelaide",https://www.realestate.com.au/property-studio-sa-adelaide-147223620,169000,179000,Studio,1,0,0,Adelaide,-34.92638075,138.58763085,87b91682affffff
"66A Vinrace Street, Adelaide",https://www.realestate.com.au/property-house-sa-adelaide-147157432,995000,1085000,House,3,3,2,Adelaide,-34.93520195253918,138.58903946959032,87b91682effffff
"316 Halifax Street, Adelaide",https://www.realestate.com.au/property-house-sa-adelaide-147366840,1100000,1100000,House,1,3,1,Adelaide,-34.931978,138.6137394048982,87b91682effffff
"1802/421 King William Street, Adelaide",https://www.realestate.com.au/property-apartment-sa-adelaide-147346232,500000,530000,Apartment,1,1,1,Adelaide,-34.84884734842526,138.5191623146657,87b916856ffffff
"619/61 Hindmarsh Square, Adelaide",https://www.realestate.com.au/property-serviced+apartment-sa-adelaide-143918348,350000,370000,Serviced,1,2,0,Adelaide,-34.92489311597964,138.60503082330666,87b91682effffff
"3 Angas Court, Adelaide",https://www.realestate.com.au/property-townhouse-sa-adelaide-147211708,880000,920000,Townhouse,2,3,1,Adelaide,-34.837861149602645,138.67664308587987,87b916810ffffff
"404/112 South Terrace, Adelaide",https://www.realestate.com.au/property-apartment-sa-adelaide-147208452,685000,685000,Apartment,1,2,1,Adelaide,-34.97223563333057,138.54772088487408,87b91695effffff
"718/185 Morphett Street, Adelaide",https://www.realestate.com.au/property-apartment-sa-adelaide-145886508,349000,369000,Apartment,1,1,0,Adelaide,-34.92181902377455,138.5932700139091,87b91682affffff
"18 Pope Street, Adelaide",https://www.realestate.com.au/property-house-sa-adelaide-147340336,880000,950000,House,2,2,1,Adelaide,-34.88933696577367,138.54486256167215,87b91680dffffff
"424/304 Waymouth Street, Adelaide",https://www.realestate.com.au/property-studio-sa-adelaide-147340272,165000,175000,Studio,1,1,0,Adelaide,-34.92638075,138.58763085,87b91682affffff
"1804/17 Penny Place, Adelaide",https://www.realestate.com.au/property-apartment-sa-adelaide-146161012,649000,699000,Apartment,1,2,1,Adelaide,-34.93109709311816,138.60217975235653,87b91682effffff
"501/88 Frome Street, Adelaide",https://www.realestate.com.au/property-apartment-sa-adelaide-146159004,200000,200000,Apartment,1,1,0,Adelaide,-34.922077400000006,138.60783435000002,87b916805ffffff
"1308/10 Balfours Way, Adelaide",https://www.realestate.com.au/property-apartment-sa-adelaide-147331796,545000,575000,Apartment,1,2,1,Adelaide,-34.9271573,138.5928691,87b91682effffff
"520/304 Waymouth Street, Adelaide",https://www.realestate.com.au/property-apartment-sa-adelaide-146944436,170000,180000,Apartment,1,1,0,Adelaide,-34.92638075,138.58763085,87b91682affffff
"419/185 Morphett Street, Adelaide",https://www.realestate.com.au/property-apartment-sa-adelaide-146917904,520000,550000,Apartment,1,2,1,Adelaide,-34.92181902377455,138.5932700139091,87b91682affffff
"716/160 Grote Street, Adelaide",https://www.realestate.com.au/property-apartment-sa-adelaide-146931656,695000,735000,Apartment,1,2,2,Adelaide,-34.9291861,138.58784885,87b91682effffff
"422/304 Waymouth Street, Adelaide",https://www.realestate.com.au/property-apartment-sa-adelaide-146276800,165000,180000,Apartment,1,1,0,Adelaide,-34.92638075,138.58763085,87b91682affffff
"245 Gilbert Street, Adelaide",https://www.realestate.com.au/property-house-sa-adelaide-147048280,1225000,1315000,House,3,3,2,Adelaide,-34.93429185481178,138.60037249793103,87b91682effffff
"309/23 King William Street, Adelaide",https://www.realestate.com.au/property-studio-sa-adelaide-147185940,215000,235000,Studio,1,1,0,Adelaide,-34.92245830209435,138.59939842220888,87b91682effffff
"4 Southcott Walk, Adelaide",https://www.realestate.com.au/property-townhouse-sa-adelaide-147144356,1550000,1650000,Townhouse,2,3,2,Adelaide,-34.93329187914973,138.61038318939907,87b91682effffff
"311/180 Morphett Street, Adelaide",https://www.realestate.com.au/property-apartment-sa-adelaide-147182908,530000,550000,Apartment,1,2,0,Adelaide,-34.861439354285785,138.65259454723204,87b916815ffffff
"403/12 Tapley Street, Adelaide",https://www.realestate.com.au/property-apartment-sa-adelaide-147044756,950000,950000,Apartment,2,3,1,Adelaide,-34.93402029852484,138.5994702681089,87b91682effffff
"101/180 Morphett Street, Adelaide",https://www.realestate.com.au/property-apartment-sa-adelaide-146110972,485000,525000,Apartment,1,2,0,Adelaide,-34.861439354285785,138.65259454723204,87b916815ffffff
"610/104 North Terrace, Adelaide",https://www.realestate.com.au/property-apartment-sa-adelaide-147309648,350000,370000,Apartment,1,1,0,Adelaide,-34.9159473,138.62216375000003,87b916805ffffff
"805/15 Austin Street, Adelaide",https://www.realestate.com.au/property-apartment-sa-adelaide-140928208,630000,650000,Apartment,2,2,1,Adelaide,-34.88121536824469,138.57041321127667,87b91680effffff
"27/41 Hurtle Square, Adelaide",https://www.realestate.com.au/property-apartment-sa-adelaide-147027996,635000,655000,Apartment,1,2,1,Adelaide,-34.93182854684359,138.6070252397105,87b91682effffff
"2311/17 Austin Street, Adelaide",https://www.realestate.com.au/property-apartment-sa-adelaide-147292740,580000,580000,Apartment,1,1,0,Adelaide,-34.88121536824469,138.57041321127667,87b91680effffff
"1812/15 Austin Street, Adelaide",https://www.realestate.com.au/property-apartment-sa-adelaide-146910916,480000,480000,Apartment,1,1,0,Adelaide,-34.88121536824469,138.57041321127667,87b91680effffff
"214 Carrington Street, Adelaide",https://www.realestate.com.au/property-house-sa-adelaide-146689272,1595000,1695000,House,1,3,1,Adelaide,-34.93099630799129,138.61043659790454,87b91682effffff
"1603/180 Franklin Street, Adelaide",https://www.realestate.com.au/property-apartment-sa-adelaide-147148876,515000,515000,Apartment,1,1,1,Adelaide,-34.91518295,138.49773015,87b916870ffffff
"1107/10 Balfours Way, Adelaide",https://www.realestate.com.au/property-apartment-sa-adelaide-147015124,428000,428000,Apartment,1,1,1,Adelaide,-34.9271573,138.5928691,87b91682effffff
"24/21 Pulteney Street, Adelaide",https://www.realestate.com.au/property-apartment-sa-adelaide-147243712,500000,500000,Apartment,1,1,0,Adelaide,-34.929808151062225,138.6061035492531,87b91682effffff
"202/185 Morphett Street, Adelaide",https://www.realestate.com.au/property-apartment-sa-adelaide-147208488,345000,345000,Apartment,1,1,0,Adelaide,-34.861439354285785,138.65259454723204,87b916815ffffff
"80 South Terrace, Adelaide",https://www.realestate.com.au/property-residential+land-sa-adelaide-204072992,2500000,2500000,Residential,0,0,0,Adelaide,-34.97223563333057,138.54772088487408,87b91695effffff
"204/180 Morphett Street, Adelaide",https://www.realestate.com.au/property-apartment-sa-adelaide-146101224,299000,325000,Apartment,1,0,0,Adelaide,-34.861439354285785,138.65259454723204,87b916815ffffff
"6/61 Symonds place, Adelaide",https://www.realestate.com.au/property-townhouse-sa-adelaide-145395528,850000,850000,Townhouse,2,3,1,Adelaide,-34.93350950994527,138.6016072579468,87b91682effffff
"1202/180 Morphett Street, Adelaide",https://www.realestate.com.au/property-apartment-sa-adelaide-133899558,610000,630000,Apartment,1,2,1,Adelaide,-34.861439354285785,138.65259454723204,87b916815ffffff
"601A Morphett Street, Adelaide",https://www.realestate.com.au/property-apartment-sa-adelaide-126515198,410000,420000,Apartment,1,2,0,Adelaide,-34.861439354285785,138.65259454723204,87b916815ffffff
"9/165 Beulah Road, Norwood",https://www.realestate.com.au/property-house-sa-norwood-147428952,27032512,27032512,House,2,3,2,Adelaide,-34.91870179026342,138.62321294878805,87b916805ffffff
"49 Davenport Terrace, Wayville",https://www.realestate.com.au/property-house-sa-wayville-147125684,2650000,2850000,House,2,4,4,Adelaide,-34.943922521235365,138.59472420411961,87b91682cffffff
"137 Robsart Street, Parkside",https://www.realestate.com.au/property-house-sa-parkside-147279304,1645000,1695000,House,2,3,2,Adelaide,-34.94508501827885,138.61707748293847,87b916821ffffff
"2 Battams Street, Stepney",https://www.realestate.com.au/property-house-sa-stepney-147424292,1050000,1050000,House,1,3,1,Adelaide,-34.909428321007105,138.63027308586973,87b916804ffffff
"17 Foster Street, Norwood",https://www.realestate.com.au/property-house-sa-norwood-145691580,2450000,2650000,House,3,4,2,Adelaide,-34.91619329004659,138.63740742198067,87b916804ffffff
"312/3 Church Ave, Norwood",https://www.realestate.com.au/property-apartment-sa-norwood-146875304,1425000,1425000,Apartment,2,2,1,Adelaide,-34.92292488379596,138.63342734423017,87b916823ffffff
"27a Miller Street, Unley",https://www.realestate.com.au/property-townhouse-sa-unley-147134056,2000000,2200000,Townhouse,2,3,2,Adelaide,-34.94340644883712,138.60124348013753,87b91682effffff
"6/49 Duthy Street, Malvern",https://www.realestate.com.au/property-unit-sa-malvern-147276352,469000,499000,Unit,1,2,1,Adelaide,-34.95907045034637,138.61494631130924,87b916821ffffff
"5B Rosemont Street, Norwood",https://www.realestate.com.au/property-house-sa-norwood-147120444,1850000,1950000,House,3,5,4,Adelaide,-34.92667051879134,138.62906130126854,87b916823ffffff
"87 Swaine Avenue, Rose Park",https://www.realestate.com.au/property-house-sa-rose+park-147150944,1250000,1250000,House,1,3,1,Adelaide,-34.93334802083103,138.6262261501613,87b916823ffffff
"64 Grant Avenue, Rose Park",https://www.realestate.com.au/property-house-sa-rose+park-147414564,2000000,2200000,House,2,3,2,Adelaide,-34.93204682476401,138.63079204873065,87b916823ffffff
"3/50 Chatham Road, Keswick",https://www.realestate.com.au/property-unit-sa-keswick-147406892,490000,530000,Unit,1,2,1,Adelaide,-34.94349100148551,138.57472762883233,87b916828ffffff
"103/10 Railway Terrace, Mile End",https://www.realestate.com.au/property-apartment-sa-mile+end-147003356,1269000,1269000,Apartment,2,3,2,Adelaide,-34.930908579991225,138.57658800233224,87b916828ffffff
"12a River Street, St Peters",https://www.realestate.com.au/property-house-sa-st+peters-146853756,2375000,2500000,House,2,3,2,Adelaide,-34.90421379667429,138.61901522520205,87b916805ffffff
"305/170 The Parade, Norwood",https://www.realestate.com.au/property-apartment-sa-norwood-145922856,650000,650000,Apartment,1,1,1,Adelaide,-34.9217095959481,138.62364435194573,87b916823ffffff
"27B Joslin Street, Wayville",https://www.realestate.com.au/property-other-sa-wayville-147116940,1790000,1890000,Other,3,4,2,Adelaide,-34.94415268484504,138.59268908963915,87b91682cffffff
"27 Cambridge Street, North Adelaide",https://www.realestate.com.au/property-house-sa-north+adelaide-146983560,1150000,1225000,House,1,3,1,Adelaide,-34.907221200933584,138.5935722973899,87b91682affffff
"14 George Street, Norwood",https://www.realestate.com.au/property-house-sa-norwood-147106472,2700000,2900000,House,4,4,4,Adelaide,-34.92572555265195,138.63694941386325,87b916823ffffff
"31 Cedar Crescent, Glenside",https://www.realestate.com.au/property-house-sa-glenside-147248252,1200000,1200000,House,2,3,2,Adelaide,-34.94322756346612,138.63066908446226,87b916823ffffff
"14/2 Kyle Street, Glenside",https://www.realestate.com.au/property-unit-sa-glenside-147388912,535000,535000,Unit,1,1,1,Adelaide,-34.94409393194697,138.63920632548465,87b916820ffffff
"28 Jaffrey Street, Parkside",https://www.realestate.com.au/property-house-sa-parkside-147178468,2175000,2175000,House,2,4,4,Adelaide,-34.942426095588885,138.61387287196422,87b916821ffffff
"8/3 Little Grenfell Street, Kent Town",https://www.realestate.com.au/property-townhouse-sa-kent+town-146317464,950000,950000,Townhouse,2,3,2,Adelaide,-34.91971623697969,138.62115567025674,87b916805ffffff
"4 Esmond Street, Hyde Park",https://www.realestate.com.au/property-house-sa-hyde+park-146636596,1550000,1550000,House,2,3,2,Adelaide,-34.95631138443179,138.60507960177588,87b916821ffffff
"06/3 Fifth Street, Bowden",https://www.realestate.com.au/property-apartment-sa-bowden-147240460,580000,620000,Apartment,1,2,1,Adelaide,-34.90541755,138.57912770000002,87b91682affffff
"3 Somerset Place, Norwood",https://www.realestate.com.au/property-house-sa-norwood-147089092,1200000,1200000,House,1,3,2,Adelaide,-34.9233229,138.6303347,87b916823ffffff
"2/64A Second Avenue, St Peters",https://www.realestate.com.au/property-unit-sa-st+peters-147273776,530000,570000,Unit,1,2,1,Adelaide,-34.90279286703382,138.63016779356192,87b916804ffffff
"39 Henley Street, Mile End",https://www.realestate.com.au/property-house-sa-mile+end-147285712,1175000,1175000,House,1,3,1,Adelaide,-34.926512306471345,138.56007822902927,87b91682bffffff
"49 Hill Street, Parkside",https://www.realestate.com.au/property-house-sa-parkside-146964456,1150000,1150000,House,1,2,4,Adelaide,-34.94772420988892,138.61875028182294,87b916821ffffff
"11 Alfred Street, Norwood",https://www.realestate.com.au/property-house-sa-norwood-146962572,3400000,3740000,House,6,6,2,Adelaide,-34.92595035,138.6315036,87b916823ffffff
"802/1 George Street, Parkside",https://www.realestate.com.au/property-apartment-sa-parkside-147062916,1175000,1275000,Apartment,2,3,2,Adelaide,-34.94328198106028,138.61293530312867,87b916821ffffff
"1/54 Essex Street, Goodwood",https://www.realestate.com.au/property-unit-sa-goodwood-147228272,575000,575000,Unit,1,2,1,Adelaide,-34.95239644899478,138.58713669838988,87b91682cffffff
"1/103 Kenilworth Road, Parkside",https://www.realestate.com.au/property-unit-sa-parkside-147367308,680000,730000,Unit,1,2,2,Adelaide,-34.95081648331249,138.6215860583834,87b916821ffffff
"17/103 Strangways Terrace, North Adelaide",https://www.realestate.com.au/property-unit-sa-north+adelaide-147048120,720000,720000,Unit,1,2,1,Adelaide,-34.91117546332642,138.5855880447047,87b91682affffff
"85 Jeffcott Street, North Adelaide",https://www.realestate.com.au/property-house-sa-north+adelaide-146614792,2150000,2150000,House,2,3,2,Adelaide,-34.91251299291792,138.59343737856236,87b91682affffff
"8/45 King William Road, North Adelaide",https://www.realestate.com.au/property-apartment-sa-north+adelaide-138112334,290000,290000,Apartment,1,1,0,Adelaide,-34.909670592304415,138.59728130064968,87b91682affffff
"89 Jeffcott Street, North Adelaide",https://www.realestate.com.au/property-house-sa-north+adelaide-146614504,2550000,2550000,House,2,4,2,Adelaide,-34.91251299291792,138.59343737856236,87b91682affffff
"1A Le Hunte Street, Wayville",https://www.realestate.com.au/property-house-sa-wayville-147361648,1300000,1300000,House,2,3,2,Adelaide,-34.946505837472344,138.5948074443781,87b91682cffffff
"18A Player Court, St Peters",https://www.realestate.com.au/property-house-sa-st+peters-141672032,2790000,2950000,House,2,4,2,Adelaide,-34.901940468836074,138.61565750642905,87b916805ffffff
"603/14 Sixth Street, Bowden",https://www.realestate.com.au/property-apartment-sa-bowden-147216800,670000,695000,Apartment,2,2,1,Adelaide,-34.905332267561484,138.58029818844696,87b91682affffff
"24 Harrow Road, College Park",https://www.realestate.com.au/property-house-sa-college+park-147361164,1750000,1750000,House,1,3,1,Adelaide,-34.91058265667106,138.62125886861705,87b916805ffffff
"3/122 Barton Terrace West, North Adelaide",https://www.realestate.com.au/property-unit-sa-north+adelaide-146589176,850000,900000,Unit,1,2,1,Adelaide,-34.90248274705419,138.5922104524899,87b916801ffffff
"22/11 Pennington Terrace, North Adelaide",https://www.realestate.com.au/property-unit-sa-north+adelaide-147356668,790000,850000,Unit,1,2,1,Adelaide,-34.91332961672455,138.59882696626576,87b91682affffff
"27 Kyle Street, Glenside",https://www.realestate.com.au/property-duplex+semi-detached-sa-glenside-147320620,1200000,1320000,Duplex,1,2,1,Adelaide,-34.94409393194697,138.63920632548465,87b916820ffffff
"6/30 College Road, Kent Town",https://www.realestate.com.au/property-unit-sa-kent+town-147348856,499000,548000,Unit,1,2,2,Adelaide,-34.92020863178336,138.6209415510286,87b916805ffffff
"10 Margaret Street, Norwood",https://www.realestate.com.au/property-house-sa-norwood-147063972,1280000,1400000,House,1,3,0,Adelaide,-34.92203705,138.6379232,87b916823ffffff
"27 Tormore Place, North Adelaide",https://www.realestate.com.au/property-house-sa-north+adelaide-146708108,1800000,1900000,House,2,3,3,Adelaide,-34.90555591207787,138.587435673847,87b91682affffff
"402/53 Gibson Street, Bowden",https://www.realestate.com.au/property-apartment-sa-bowden-147056688,640000,665000,Apartment,1,2,1,Adelaide,-34.90533044007905,138.5776684818856,87b91682affffff
"1D Birks Street, Parkside",https://www.realestate.com.au/property-house-sa-parkside-145238380,2600000,2800000,House,3,4,2,Adelaide,-34.94888565,138.6240828,87b916821ffffff
"18 Elizabeth Street, Eastwood",https://www.realestate.com.au/property-house-sa-eastwood-147188960,1200000,1250000,House,1,2,0,Adelaide,-34.94282291961927,138.62321392723385,87b916821ffffff
"12/333 Fullarton Road, Parkside",https://www.realestate.com.au/property-unit-sa-parkside-147045148,465000,465000,Unit,1,2,1,Adelaide,-34.950917652883376,138.625399163915,87b916821ffffff
"4/121 Kensington Road, Norwood",https://www.realestate.com.au/property-townhouse-sa-norwood-146920980,3000000,3250000,Townhouse,3,4,2,Adelaide,-34.927210986360315,138.63651525176076,87b916823ffffff
"60A Darebin Street, Mile End",https://www.realestate.com.au/property-house-sa-mile+end-146883548,950000,980000,House,3,5,2,Adelaide,-34.92969235609603,138.56570024776676,87b916828ffffff
"59 Henry Street, Stepney",https://www.realestate.com.au/property-house-sa-stepney-147173816,875000,875000,House,1,2,1,Adelaide,-34.91120199556794,138.6323548392521,87b916804ffffff
"71a Gibson Street, Bowden",https://www.realestate.com.au/property-townhouse-sa-bowden-147171760,960000,1000000,Townhouse,2,3,2,Adelaide,-34.90533044007905,138.5776684818856,87b91682affffff
"7 Sheldon Street, Norwood",https://www.realestate.com.au/property-house-sa-norwood-147152812,950000,995000,House,1,3,0,Adelaide,-34.917390432517166,138.6295026015869,87b916804ffffff
"31 Jaffrey Street, Parkside",https://www.realestate.com.au/property-house-sa-parkside-147135580,1050000,1150000,House,1,3,1,Adelaide,-34.942426095588885,138.61387287196422,87b916821ffffff
"9/23 Park Terrace, Gilberton",https://www.realestate.com.au/property-house-sa-gilberton-146404400,1250000,1250000,House,3,3,2,Adelaide,-34.90348236764043,138.61143573572357,87b916805ffffff
"9 Eleventh Avenue, St Peters",https://www.realestate.com.au/property-house-sa-st+peters-147161256,2450000,2450000,House,2,4,2,Adelaide,-34.89811998133425,138.620218942081,87b916800ffffff
"13 Harrow Road, St Peters",https://www.realestate.com.au/property-house-sa-st+peters-146551448,3000000,3300000,House,3,4,2,Adelaide,-34.90808988033081,138.61795945947844,87b916805ffffff
"64 Gilbert Street, Gilberton",https://www.realestate.com.au/property-house-sa-gilberton-146688360,1380000,1380000,House,2,3,4,Adelaide,-34.90180715730072,138.61240569526862,87b916805ffffff
"612/1 King William Street, Kent Town",https://www.realestate.com.au/property-apartment-sa-kent+town-147144292,880000,920000,Apartment,2,2,2,Adelaide,-34.919605211562846,138.61759373432744,87b916805ffffff
"76 Sydenham Road, Norwood",https://www.realestate.com.au/property-house-sa-norwood-147367452,870000,950000,House,1,2,0,Adelaide,-34.92597776391573,138.62790927814993,87b916823ffffff
"6 Short Street, Wayville",https://www.realestate.com.au/property-house-sa-wayville-147075136,1400000,1500000,House,1,3,3,Adelaide,-34.94444081374656,138.5907450592106,87b91682cffffff
"31 Ashford Road, Keswick",https://www.realestate.com.au/property-house-sa-keswick-145354520,900000,930000,House,2,3,2,Adelaide,-34.94391415074607,138.5771000394246,87b916828ffffff
"12 High St, Unley Park",https://www.realestate.com.au/property-house-sa-unley+park-146401364,3890000,3890000,House,2,4,2,Adelaide,-34.963994515781295,138.6054502483626,87b916952ffffff
"31/220 Greenhill Road, Eastwood",https://www.realestate.com.au/property-apartment-sa-eastwood-147000976,850000,850000,Apartment,2,2,1,Adelaide,-34.94033772054275,138.62029917347573,87b916823ffffff
"79-81 William Street, Norwood",https://www.realestate.com.au/property-retirement+living-sa-norwood-140268763,212000,212000,Retirement,1,1,0,Adelaide,-34.9241587,138.63343040278806,87b916823ffffff
"Lot 3 Boswell Place, Norwood",https://www.realestate.com.au/property-house-sa-norwood-147200352,2135000,2135000,House,2,5,2,Adelaide,-34.926456184723,138.63373434854844,87b916823ffffff
"79-81 William St, Norwood",https://www.realestate.com.au/property-retirement+living-sa-norwood-136786618,170000,170000,Retirement,1,1,0,Adelaide,-34.9241587,138.63343040278806,87b916823ffffff
"92B Osmond Terrace, Norwood",https://www.realestate.com.au/property-house-sa-norwood-146823588,4300000,4300000,House,1,4,2,Adelaide,-34.915653353118344,138.63158057411755,87b916804ffffff
"92c Osmond Tce, Norwood",https://www.realestate.com.au/property-house-sa-norwood-146829400,4300000,4300000,House,3,4,2,Adelaide,-34.915653353118344,138.63158057411755,87b916804ffffff
"10/9 Wakefield Street, Kent Town",https://www.realestate.com.au/property-unit-sa-kent+town-146816868,520000,520000,Unit,1,2,1,Adelaide,-34.92456836047554,138.62183853072162,87b916823ffffff
"3 Boswell Place, Norwood",https://www.realestate.com.au/property-house-sa-norwood-146722384,2283000,2283000,House,3,5,2,Adelaide,-34.926456184723,138.63373434854844,87b916823ffffff
"17-23 Grenfell St, Kent Town",https://www.realestate.com.au/property-retirement+living-sa-kent+town-140056559,369000,369000,Retirement,1,1,0,Adelaide,-34.920223580771165,138.62140789558725,87b916805ffffff
